{"type":"FeatureCollection","features":[{"type":"Feature","properties":{"OBJECTID":223,"TOWN_ID":6300100,"TOWN_NAME":"松山區","T_UID":223,"COUNTY_NAME":"台北市","ALL":"台北市松山區"},"geometry":{"type":"Point","coordinates":[121.567322,25.057029]}},{"type":"Feature","properties":{"OBJECTID":224,"TOWN_ID":6300200,"TOWN_NAME":"信義區","T_UID":224,"COUNTY_NAME":"台北市","ALL":"台北市信義區"},"geometry":{"type":"Point","coordinates":[121.570349,25.033110]}},{"type":"Feature","properties":{"OBJECTID":225,"TOWN_ID":6300300,"TOWN_NAME":"大安區","T_UID":225,"COUNTY_NAME":"台北市","ALL":"台北市大安區"},"geometry":{"type":"Point","coordinates":[121.5477093,25.0261583]}},{"type":"Feature","properties":{"OBJECTID":226,"TOWN_ID":6300400,"TOWN_NAME":"中山區","T_UID":226,"COUNTY_NAME":"台北市","ALL":"台北市中山區"},"geometry":{"type":"Point","coordinates":[121.5477093,25.0792018]}},{"type":"Feature","properties":{"OBJECTID":227,"TOWN_ID":6300500,"TOWN_NAME":"中正區","T_UID":227,"COUNTY_NAME":"台北市","ALL":"台北市中正區"},"geometry":{"type":"Point","coordinates":[121.5248716,25.0421407]}},{"type":"Feature","properties":{"OBJECTID":228,"TOWN_ID":6300600,"TOWN_NAME":"大同區","T_UID":228,"COUNTY_NAME":"台北市","ALL":"台北市大同區"},"geometry":{"type":"Point","coordinates":[121.5163064,25.0627243]}},{"type":"Feature","properties":{"OBJECTID":229,"TOWN_ID":6300700,"TOWN_NAME":"萬華區","T_UID":229,"COUNTY_NAME":"台北市","ALL":"台北市萬華區"},"geometry":{"type":"Point","coordinates":[121.5020294,25.0262857]}},{"type":"Feature","properties":{"OBJECTID":230,"TOWN_ID":6300800,"TOWN_NAME":"文山區","T_UID":230,"COUNTY_NAME":"台北市","ALL":"台北市文山區"},"geometry":{"type":"Point","coordinates":[121.57625,24.9929212]}},{"type":"Feature","properties":{"OBJECTID":231,"TOWN_ID":6300900,"TOWN_NAME":"南港區","T_UID":231,"COUNTY_NAME":"台北市","ALL":"台北市南港區"},"geometry":{"type":"Point","coordinates":[121.6161949,25.0312347]}},{"type":"Feature","properties":{"OBJECTID":232,"TOWN_ID":6301000,"TOWN_NAME":"內湖區","T_UID":232,"COUNTY_NAME":"台北市","ALL":"台北市內湖區"},"geometry":{"type":"Point","coordinates":[121.5959027,25.0689422]}},{"type":"Feature","properties":{"OBJECTID":233,"TOWN_ID":6301100,"TOWN_NAME":"士林區","T_UID":233,"COUNTY_NAME":"台北市","ALL":"台北市士林區"},"geometry":{"type":"Point","coordinates":[121.5296077,25.0950492]}},{"type":"Feature","properties":{"OBJECTID":234,"TOWN_ID":6301200,"TOWN_NAME":"北投區","T_UID":234,"COUNTY_NAME":"台北市","ALL":"台北市北投區"},"geometry":{"type":"Point","coordinates":[121.515490,25.158700]}},{"type":"Feature","properties":{"OBJECTID":235,"TOWN_ID":6400100,"TOWN_NAME":"鹽埕區","T_UID":235,"COUNTY_NAME":"高雄市","ALL":"高雄市鹽埕區"},"geometry":{"type":"Point","coordinates":[120.2880007,22.6224414]}},{"type":"Feature","properties":{"OBJECTID":236,"TOWN_ID":6400200,"TOWN_NAME":"鼓山區","T_UID":236,"COUNTY_NAME":"高雄市","ALL":"高雄市鼓山區"},"geometry":{"type":"Point","coordinates":[120.2735799,22.6495866]}},{"type":"Feature","properties":{"OBJECTID":237,"TOWN_ID":6400300,"TOWN_NAME":"左營區","T_UID":237,"COUNTY_NAME":"高雄市","ALL":"高雄市左營區"},"geometry":{"type":"Point","coordinates":[120.2966524,22.6877358]}},{"type":"Feature","properties":{"OBJECTID":238,"TOWN_ID":6400400,"TOWN_NAME":"楠梓區","T_UID":238,"COUNTY_NAME":"高雄市","ALL":"高雄市楠梓區"},"geometry":{"type":"Point","coordinates":[120.3081871,22.7175372]}},{"type":"Feature","properties":{"OBJECTID":239,"TOWN_ID":6400500,"TOWN_NAME":"三民區","T_UID":239,"COUNTY_NAME":"高雄市","ALL":"高雄市三民區"},"geometry":{"type":"Point","coordinates":[120.3312535,22.6483444]}},{"type":"Feature","properties":{"OBJECTID":23,"TOWN_ID":6800100,"TOWN_NAME":"桃園區","T_UID":23,"COUNTY_NAME":"桃園市","ALL":"桃園市桃園區"},"geometry":{"type":"Point","coordinates":[121.3019674,24.9934099]}},{"type":"Feature","properties":{"OBJECTID":24,"TOWN_ID":6800200,"TOWN_NAME":"中壢區","T_UID":24,"COUNTY_NAME":"桃園市","ALL":"桃園市中壢區"},"geometry":{"type":"Point","coordinates":[121.2103963,24.9721514]}},{"type":"Feature","properties":{"OBJECTID":240,"TOWN_ID":6400600,"TOWN_NAME":"新興區","T_UID":240,"COUNTY_NAME":"高雄市","ALL":"高雄市新興區"},"geometry":{"type":"Point","coordinates":[120.3110706,22.6283893]}},{"type":"Feature","properties":{"OBJECTID":241,"TOWN_ID":6400700,"TOWN_NAME":"前金區","T_UID":241,"COUNTY_NAME":"高雄市","ALL":"高雄市前金區"},"geometry":{"type":"Point","coordinates":[120.2995362,22.6254162]}},{"type":"Feature","properties":{"OBJECTID":242,"TOWN_ID":6400800,"TOWN_NAME":"苓雅區","T_UID":242,"COUNTY_NAME":"高雄市","ALL":"高雄市苓雅區"},"geometry":{"type":"Point","coordinates":[120.318421,22.622694]}},{"type":"Feature","properties":{"OBJECTID":243,"TOWN_ID":6400900,"TOWN_NAME":"前鎮區","T_UID":243,"COUNTY_NAME":"高雄市","ALL":"高雄市前鎮區"},"geometry":{"type":"Point","coordinates":[120.308242,22.588781]}},{"type":"Feature","properties":{"OBJECTID":244,"TOWN_ID":6401000,"TOWN_NAME":"旗津區","T_UID":244,"COUNTY_NAME":"高雄市","ALL":"高雄市旗津區"},"geometry":{"type":"Point","coordinates":[120.311998,22.561674]}},{"type":"Feature","properties":{"OBJECTID":245,"TOWN_ID":6401100,"TOWN_NAME":"小港區","T_UID":245,"COUNTY_NAME":"高雄市","ALL":"高雄市小港區"},"geometry":{"type":"Point","coordinates":[120.3658455,22.5553185]}},{"type":"Feature","properties":{"OBJECTID":246,"TOWN_ID":6401200,"TOWN_NAME":"鳳山區","T_UID":246,"COUNTY_NAME":"高雄市","ALL":"高雄市鳳山區"},"geometry":{"type":"Point","coordinates":[120.3543158,22.6113591]}},{"type":"Feature","properties":{"OBJECTID":247,"TOWN_ID":6401300,"TOWN_NAME":"林園區","T_UID":247,"COUNTY_NAME":"高雄市","ALL":"高雄市林園區"},"geometry":{"type":"Point","coordinates":[120.4061911,22.4986756]}},{"type":"Feature","properties":{"OBJECTID":248,"TOWN_ID":6401400,"TOWN_NAME":"大寮區","T_UID":248,"COUNTY_NAME":"高雄市","ALL":"高雄市大寮區"},"geometry":{"type":"Point","coordinates":[120.4061911,22.584481]}},{"type":"Feature","properties":{"OBJECTID":249,"TOWN_ID":6401500,"TOWN_NAME":"大樹區","T_UID":249,"COUNTY_NAME":"高雄市","ALL":"高雄市大樹區"},"geometry":{"type":"Point","coordinates":[120.4292401,22.708371]}},{"type":"Feature","properties":{"OBJECTID":25,"TOWN_ID":6800300,"TOWN_NAME":"大溪區","T_UID":25,"COUNTY_NAME":"桃園市","ALL":"桃園市大溪區"},"geometry":{"type":"Point","coordinates":[121.3019674,24.8658422]}},{"type":"Feature","properties":{"OBJECTID":250,"TOWN_ID":6401600,"TOWN_NAME":"大社區","T_UID":250,"COUNTY_NAME":"高雄市","ALL":"高雄市大社區"},"geometry":{"type":"Point","coordinates":[120.3658455,22.7377083]}},{"type":"Feature","properties":{"OBJECTID":251,"TOWN_ID":6401700,"TOWN_NAME":"仁武區","T_UID":251,"COUNTY_NAME":"高雄市","ALL":"高雄市仁武區"},"geometry":{"type":"Point","coordinates":[120.3658455,22.6947932]}},{"type":"Feature","properties":{"OBJECTID":252,"TOWN_ID":6401800,"TOWN_NAME":"鳥松區","T_UID":252,"COUNTY_NAME":"高雄市","ALL":"高雄市鳥松區"},"geometry":{"type":"Point","coordinates":[120.3773741,22.6602052]}},{"type":"Feature","properties":{"OBJECTID":253,"TOWN_ID":6401900,"TOWN_NAME":"岡山區","T_UID":253,"COUNTY_NAME":"高雄市","ALL":"高雄市岡山區"},"geometry":{"type":"Point","coordinates":[120.2908846,22.8016472]}},{"type":"Feature","properties":{"OBJECTID":254,"TOWN_ID":6402000,"TOWN_NAME":"橋頭區","T_UID":254,"COUNTY_NAME":"高雄市","ALL":"高雄市橋頭區"},"geometry":{"type":"Point","coordinates":[120.3139541,22.7539012]}},{"type":"Feature","properties":{"OBJECTID":255,"TOWN_ID":6402100,"TOWN_NAME":"燕巢區","T_UID":255,"COUNTY_NAME":"高雄市","ALL":"高雄市燕巢區"},"geometry":{"type":"Point","coordinates":[120.383138,22.7823697]}},{"type":"Feature","properties":{"OBJECTID":256,"TOWN_ID":6402200,"TOWN_NAME":"田寮區","T_UID":256,"COUNTY_NAME":"高雄市","ALL":"高雄市田寮區"},"geometry":{"type":"Point","coordinates":[120.4061911,22.8633474]}},{"type":"Feature","properties":{"OBJECTID":257,"TOWN_ID":6402300,"TOWN_NAME":"阿蓮區","T_UID":257,"COUNTY_NAME":"高雄市","ALL":"高雄市阿蓮區"},"geometry":{"type":"Point","coordinates":[120.3370195,22.8778606]}},{"type":"Feature","properties":{"OBJECTID":258,"TOWN_ID":6402400,"TOWN_NAME":"路竹區","T_UID":258,"COUNTY_NAME":"高雄市","ALL":"高雄市路竹區"},"geometry":{"type":"Point","coordinates":[120.2678111,22.8494042]}},{"type":"Feature","properties":{"OBJECTID":259,"TOWN_ID":6402500,"TOWN_NAME":"湖內區","T_UID":259,"COUNTY_NAME":"高雄市","ALL":"高雄市湖內區"},"geometry":{"type":"Point","coordinates":[120.2274227,22.8954184]}},{"type":"Feature","properties":{"OBJECTID":26,"TOWN_ID":6800400,"TOWN_NAME":"楊梅區","T_UID":26,"COUNTY_NAME":"桃園市","ALL":"桃園市楊梅區"},"geometry":{"type":"Point","coordinates":[121.1416715,24.9242108]}},{"type":"Feature","properties":{"OBJECTID":260,"TOWN_ID":6402600,"TOWN_NAME":"茄萣區","T_UID":260,"COUNTY_NAME":"高雄市","ALL":"高雄市茄萣區"},"geometry":{"type":"Point","coordinates":[120.2158809,22.8763476]}},{"type":"Feature","properties":{"OBJECTID":261,"TOWN_ID":6402700,"TOWN_NAME":"永安區","T_UID":261,"COUNTY_NAME":"高雄市","ALL":"高雄市永安區"},"geometry":{"type":"Point","coordinates":[120.2447336,22.8112691]}},{"type":"Feature","properties":{"OBJECTID":262,"TOWN_ID":6402800,"TOWN_NAME":"彌陀區","T_UID":262,"COUNTY_NAME":"高雄市","ALL":"高雄市彌陀區"},"geometry":{"type":"Point","coordinates":[120.2505033,22.7832231]}},{"type":"Feature","properties":{"OBJECTID":263,"TOWN_ID":6402900,"TOWN_NAME":"梓官區","T_UID":263,"COUNTY_NAME":"高雄市","ALL":"高雄市梓官區"},"geometry":{"type":"Point","coordinates":[120.2620421,22.7486104]}},{"type":"Feature","properties":{"OBJECTID":264,"TOWN_ID":6403000,"TOWN_NAME":"旗山區","T_UID":264,"COUNTY_NAME":"高雄市","ALL":"高雄市旗山區"},"geometry":{"type":"Point","coordinates":[120.4753258,22.8702492]}},{"type":"Feature","properties":{"OBJECTID":265,"TOWN_ID":6403100,"TOWN_NAME":"美濃區","T_UID":265,"COUNTY_NAME":"高雄市","ALL":"高雄市美濃區"},"geometry":{"type":"Point","coordinates":[120.5559358,22.885385]}},{"type":"Feature","properties":{"OBJECTID":266,"TOWN_ID":6403200,"TOWN_NAME":"六龜區","T_UID":266,"COUNTY_NAME":"高雄市","ALL":"高雄市六龜區"},"geometry":{"type":"Point","coordinates":[120.6595022,23.0026195]}},{"type":"Feature","properties":{"OBJECTID":267,"TOWN_ID":6403300,"TOWN_NAME":"甲仙區","T_UID":267,"COUNTY_NAME":"高雄市","ALL":"高雄市甲仙區"},"geometry":{"type":"Point","coordinates":[120.6364948,23.114592]}},{"type":"Feature","properties":{"OBJECTID":268,"TOWN_ID":6403400,"TOWN_NAME":"杉林區","T_UID":268,"COUNTY_NAME":"高雄市","ALL":"高雄市杉林區"},"geometry":{"type":"Point","coordinates":[120.5674474,23.0007902]}},{"type":"Feature","properties":{"OBJECTID":269,"TOWN_ID":6403500,"TOWN_NAME":"內門區","T_UID":269,"COUNTY_NAME":"高雄市","ALL":"高雄市內門區"},"geometry":{"type":"Point","coordinates":[120.4753258,22.9560087]}},{"type":"Feature","properties":{"OBJECTID":27,"TOWN_ID":6800500,"TOWN_NAME":"蘆竹區","T_UID":27,"COUNTY_NAME":"桃園市","ALL":"桃園市蘆竹區"},"geometry":{"type":"Point","coordinates":[121.3019674,25.0784359]}},{"type":"Feature","properties":{"OBJECTID":270,"TOWN_ID":6403600,"TOWN_NAME":"茂林區","T_UID":270,"COUNTY_NAME":"高雄市","ALL":"高雄市茂林區"},"geometry":{"type":"Point","coordinates":[120.739995,22.9319405]}},{"type":"Feature","properties":{"OBJECTID":271,"TOWN_ID":6403700,"TOWN_NAME":"桃源區","T_UID":271,"COUNTY_NAME":"高雄市","ALL":"高雄市桃源區"},"geometry":{"type":"Point","coordinates":[120.8548944,23.2280755]}},{"type":"Feature","properties":{"OBJECTID":272,"TOWN_ID":6403800,"TOWN_NAME":"那瑪夏區","T_UID":272,"COUNTY_NAME":"高雄市","ALL":"高雄市那瑪夏區"},"geometry":{"type":"Point","coordinates":[120.739995,23.2742978]}},{"type":"Feature","properties":{"OBJECTID":273,"TOWN_ID":6500100,"TOWN_NAME":"板橋區","T_UID":273,"COUNTY_NAME":"新北市","ALL":"新北市板橋區"},"geometry":{"type":"Point","coordinates":[121.4668415,25.0114095]}},{"type":"Feature","properties":{"OBJECTID":274,"TOWN_ID":6500200,"TOWN_NAME":"三重區","T_UID":274,"COUNTY_NAME":"新北市","ALL":"新北市三重區"},"geometry":{"type":"Point","coordinates":[121.4917114,25.0614534]}},{"type":"Feature","properties":{"OBJECTID":275,"TOWN_ID":6500300,"TOWN_NAME":"中和區","T_UID":275,"COUNTY_NAME":"新北市","ALL":"新北市中和區"},"geometry":{"type":"Point","coordinates":[121.493478,24.991823]}},{"type":"Feature","properties":{"OBJECTID":276,"TOWN_ID":6500400,"TOWN_NAME":"永和區","T_UID":276,"COUNTY_NAME":"新北市","ALL":"新北市永和區"},"geometry":{"type":"Point","coordinates":[121.5195353,25.0103251]}},{"type":"Feature","properties":{"OBJECTID":277,"TOWN_ID":6500500,"TOWN_NAME":"新莊區","T_UID":277,"COUNTY_NAME":"新北市","ALL":"新北市新莊區"},"geometry":{"type":"Point","coordinates":[121.442009,25.027928]}},{"type":"Feature","properties":{"OBJECTID":278,"TOWN_ID":6500600,"TOWN_NAME":"新店區","T_UID":278,"COUNTY_NAME":"新北市","ALL":"新北市新店區"},"geometry":{"type":"Point","coordinates":[121.530996,24.943538]}},{"type":"Feature","properties":{"OBJECTID":279,"TOWN_ID":6500700,"TOWN_NAME":"樹林區","T_UID":279,"COUNTY_NAME":"新北市","ALL":"新北市樹林區"},"geometry":{"type":"Point","coordinates":[121.397603,24.985878]}},{"type":"Feature","properties":{"OBJECTID":28,"TOWN_ID":6800600,"TOWN_NAME":"大園區","T_UID":28,"COUNTY_NAME":"桃園市","ALL":"桃園市大園區"},"geometry":{"type":"Point","coordinates":[121.198945,25.0492632]}},{"type":"Feature","properties":{"OBJECTID":280,"TOWN_ID":6500800,"TOWN_NAME":"鶯歌區","T_UID":280,"COUNTY_NAME":"新北市","ALL":"新北市鶯歌區"},"geometry":{"type":"Point","coordinates":[121.3477262,24.9614967]}},{"type":"Feature","properties":{"OBJECTID":281,"TOWN_ID":6500900,"TOWN_NAME":"三峽區","T_UID":281,"COUNTY_NAME":"新北市","ALL":"新北市三峽區"},"geometry":{"type":"Point","coordinates":[121.408725,24.889379]}},{"type":"Feature","properties":{"OBJECTID":282,"TOWN_ID":6501000,"TOWN_NAME":"淡水區","T_UID":282,"COUNTY_NAME":"新北市","ALL":"新北市淡水區"},"geometry":{"type":"Point","coordinates":[121.476551,25.18673]}},{"type":"Feature","properties":{"OBJECTID":283,"TOWN_ID":6501100,"TOWN_NAME":"汐止區","T_UID":283,"COUNTY_NAME":"新北市","ALL":"新北市汐止區"},"geometry":{"type":"Point","coordinates":[121.6447184,25.0616059]}},{"type":"Feature","properties":{"OBJECTID":284,"TOWN_ID":6501200,"TOWN_NAME":"瑞芳區","T_UID":284,"COUNTY_NAME":"新北市","ALL":"新北市瑞芳區"},"geometry":{"type":"Point","coordinates":[121.827098,25.103052]}},{"type":"Feature","properties":{"OBJECTID":285,"TOWN_ID":6501300,"TOWN_NAME":"土城區","T_UID":285,"COUNTY_NAME":"新北市","ALL":"新北市土城區"},"geometry":{"type":"Point","coordinates":[121.443034,24.968371]}},{"type":"Feature","properties":{"OBJECTID":286,"TOWN_ID":6501400,"TOWN_NAME":"蘆洲區","T_UID":286,"COUNTY_NAME":"新北市","ALL":"新北市蘆洲區"},"geometry":{"type":"Point","coordinates":[121.4765241,25.0868908]}},{"type":"Feature","properties":{"OBJECTID":287,"TOWN_ID":6501500,"TOWN_NAME":"五股區","T_UID":287,"COUNTY_NAME":"新北市","ALL":"新北市五股區"},"geometry":{"type":"Point","coordinates":[121.4436586,25.0848317]}},{"type":"Feature","properties":{"OBJECTID":288,"TOWN_ID":6501600,"TOWN_NAME":"泰山區","T_UID":288,"COUNTY_NAME":"新北市","ALL":"新北市泰山區"},"geometry":{"type":"Point","coordinates":[121.410432,25.059693]}},{"type":"Feature","properties":{"OBJECTID":289,"TOWN_ID":6501700,"TOWN_NAME":"林口區","T_UID":289,"COUNTY_NAME":"新北市","ALL":"新北市林口區"},"geometry":{"type":"Point","coordinates":[121.353575,25.101530]}},{"type":"Feature","properties":{"OBJECTID":29,"TOWN_ID":6800700,"TOWN_NAME":"龜山區","T_UID":29,"COUNTY_NAME":"桃園市","ALL":"桃園市龜山區"},"geometry":{"type":"Point","coordinates":[121.3705989,25.0199092]}},{"type":"Feature","properties":{"OBJECTID":290,"TOWN_ID":6501800,"TOWN_NAME":"深坑區","T_UID":290,"COUNTY_NAME":"新北市","ALL":"新北市深坑區"},"geometry":{"type":"Point","coordinates":[121.6219002,25.0033792]}},{"type":"Feature","properties":{"OBJECTID":291,"TOWN_ID":6501900,"TOWN_NAME":"石碇區","T_UID":291,"COUNTY_NAME":"新北市","ALL":"新北市石碇區"},"geometry":{"type":"Point","coordinates":[121.678671,24.991926]}},{"type":"Feature","properties":{"OBJECTID":292,"TOWN_ID":6502000,"TOWN_NAME":"坪林區","T_UID":292,"COUNTY_NAME":"新北市","ALL":"新北市坪林區"},"geometry":{"type":"Point","coordinates":[121.7157613,24.9350844]}},{"type":"Feature","properties":{"OBJECTID":293,"TOWN_ID":6502100,"TOWN_NAME":"三芝區","T_UID":293,"COUNTY_NAME":"新北市","ALL":"新北市三芝區"},"geometry":{"type":"Point","coordinates":[121.5074341,25.2593452]}},{"type":"Feature","properties":{"OBJECTID":294,"TOWN_ID":6502200,"TOWN_NAME":"石門區","T_UID":294,"COUNTY_NAME":"新北市","ALL":"新北市石門區"},"geometry":{"type":"Point","coordinates":[121.5721383,25.2908277]}},{"type":"Feature","properties":{"OBJECTID":295,"TOWN_ID":6502300,"TOWN_NAME":"八里區","T_UID":295,"COUNTY_NAME":"新北市","ALL":"新北市八里區"},"geometry":{"type":"Point","coordinates":[121.4033016,25.1443896]}},{"type":"Feature","properties":{"OBJECTID":296,"TOWN_ID":6502400,"TOWN_NAME":"平溪區","T_UID":296,"COUNTY_NAME":"新北市","ALL":"新北市平溪區"},"geometry":{"type":"Point","coordinates":[121.7458654,25.0248314]}},{"type":"Feature","properties":{"OBJECTID":297,"TOWN_ID":6502500,"TOWN_NAME":"雙溪區","T_UID":297,"COUNTY_NAME":"新北市","ALL":"新北市雙溪區"},"geometry":{"type":"Point","coordinates":[121.827098,24.9971842]}},{"type":"Feature","properties":{"OBJECTID":298,"TOWN_ID":6502600,"TOWN_NAME":"貢寮區","T_UID":298,"COUNTY_NAME":"新北市","ALL":"新北市貢寮區"},"geometry":{"type":"Point","coordinates":[121.9509786,25.0168762]}},{"type":"Feature","properties":{"OBJECTID":299,"TOWN_ID":6502700,"TOWN_NAME":"金山區","T_UID":299,"COUNTY_NAME":"新北市","ALL":"新北市金山區"},"geometry":{"type":"Point","coordinates":[121.598612,25.210264]}},{"type":"Feature","properties":{"OBJECTID":30,"TOWN_ID":6800800,"TOWN_NAME":"八德區","T_UID":30,"COUNTY_NAME":"桃園市","ALL":"桃園市八德區"},"geometry":{"type":"Point","coordinates":[121.2962463,24.9469059]}},{"type":"Feature","properties":{"OBJECTID":300,"TOWN_ID":6502800,"TOWN_NAME":"萬里區","T_UID":300,"COUNTY_NAME":"新北市","ALL":"新北市萬里區"},"geometry":{"type":"Point","coordinates":[121.6447184,25.1676024]}},{"type":"Feature","properties":{"OBJECTID":301,"TOWN_ID":6502900,"TOWN_NAME":"烏來區","T_UID":301,"COUNTY_NAME":"新北市","ALL":"新北市烏來區"},"geometry":{"type":"Point","coordinates":[121.555619,24.805131]}},{"type":"Feature","properties":{"OBJECTID":302,"TOWN_ID":6600100,"TOWN_NAME":"中區","T_UID":302,"COUNTY_NAME":"台中市","ALL":"台中市中區"},"geometry":{"type":"Point","coordinates":[120.680753,24.141839]}},{"type":"Feature","properties":{"OBJECTID":303,"TOWN_ID":6600200,"TOWN_NAME":"東區","T_UID":303,"COUNTY_NAME":"台中市","ALL":"台中市東區"},"geometry":{"type":"Point","coordinates":[120.6994233,24.1427702]}},{"type":"Feature","properties":{"OBJECTID":304,"TOWN_ID":6600300,"TOWN_NAME":"南區","T_UID":304,"COUNTY_NAME":"台中市","ALL":"台中市南區"},"geometry":{"type":"Point","coordinates":[120.6674117,24.1208445]}},{"type":"Feature","properties":{"OBJECTID":305,"TOWN_ID":6600400,"TOWN_NAME":"西區","T_UID":305,"COUNTY_NAME":"台中市","ALL":"台中市西區"},"geometry":{"type":"Point","coordinates":[120.6681289,24.1430604]}},{"type":"Feature","properties":{"OBJECTID":306,"TOWN_ID":6600500,"TOWN_NAME":"北區","T_UID":306,"COUNTY_NAME":"台中市","ALL":"台中市北區"},"geometry":{"type":"Point","coordinates":[120.679583,24.1629451]}},{"type":"Feature","properties":{"OBJECTID":307,"TOWN_ID":6600600,"TOWN_NAME":"西屯區","T_UID":307,"COUNTY_NAME":"台中市","ALL":"台中市西屯區"},"geometry":{"type":"Point","coordinates":[120.6474333,24.1769764]}},{"type":"Feature","properties":{"OBJECTID":308,"TOWN_ID":6600700,"TOWN_NAME":"南屯區","T_UID":308,"COUNTY_NAME":"台中市","ALL":"台中市南屯區"},"geometry":{"type":"Point","coordinates":[120.6134832,24.1471183]}},{"type":"Feature","properties":{"OBJECTID":309,"TOWN_ID":6600800,"TOWN_NAME":"北屯區","T_UID":309,"COUNTY_NAME":"台中市","ALL":"台中市北屯區"},"geometry":{"type":"Point","coordinates":[120.6911019,24.1815237]}},{"type":"Feature","properties":{"OBJECTID":31,"TOWN_ID":6800900,"TOWN_NAME":"龍潭區","T_UID":31,"COUNTY_NAME":"桃園市","ALL":"桃園市龍潭區"},"geometry":{"type":"Point","coordinates":[121.2103963,24.8444927]}},{"type":"Feature","properties":{"OBJECTID":310,"TOWN_ID":6600900,"TOWN_NAME":"豐原區","T_UID":310,"COUNTY_NAME":"台中市","ALL":"台中市豐原區"},"geometry":{"type":"Point","coordinates":[120.7273572,24.2521156]}},{"type":"Feature","properties":{"OBJECTID":311,"TOWN_ID":6601000,"TOWN_NAME":"東勢區","T_UID":311,"COUNTY_NAME":"台中市","ALL":"台中市東勢區"},"geometry":{"type":"Point","coordinates":[120.8322085,24.2599898]}},{"type":"Feature","properties":{"OBJECTID":312,"TOWN_ID":6601100,"TOWN_NAME":"大甲區","T_UID":312,"COUNTY_NAME":"台中市","ALL":"台中市大甲區"},"geometry":{"type":"Point","coordinates":[120.6537508,24.3788233]}},{"type":"Feature","properties":{"OBJECTID":313,"TOWN_ID":6601200,"TOWN_NAME":"清水區","T_UID":313,"COUNTY_NAME":"台中市","ALL":"台中市清水區"},"geometry":{"type":"Point","coordinates":[120.5904674,24.301983]}},{"type":"Feature","properties":{"OBJECTID":314,"TOWN_ID":6601300,"TOWN_NAME":"沙鹿區","T_UID":314,"COUNTY_NAME":"台中市","ALL":"台中市沙鹿區"},"geometry":{"type":"Point","coordinates":[120.5904674,24.2377939]}},{"type":"Feature","properties":{"OBJECTID":315,"TOWN_ID":6601500,"TOWN_NAME":"后里區","T_UID":315,"COUNTY_NAME":"台中市","ALL":"台中市后里區"},"geometry":{"type":"Point","coordinates":[120.7273705,24.3088765]}},{"type":"Feature","properties":{"OBJECTID":316,"TOWN_ID":6601600,"TOWN_NAME":"神岡區","T_UID":316,"COUNTY_NAME":"台中市","ALL":"台中市神岡區"},"geometry":{"type":"Point","coordinates":[120.668575,24.269216]}},{"type":"Feature","properties":{"OBJECTID":317,"TOWN_ID":6601700,"TOWN_NAME":"潭子區","T_UID":317,"COUNTY_NAME":"台中市","ALL":"台中市潭子區"},"geometry":{"type":"Point","coordinates":[120.7112535,24.2163612]}},{"type":"Feature","properties":{"OBJECTID":318,"TOWN_ID":6601800,"TOWN_NAME":"大雅區","T_UID":318,"COUNTY_NAME":"台中市","ALL":"台中市大雅區"},"geometry":{"type":"Point","coordinates":[120.644632,24.220003]}},{"type":"Feature","properties":{"OBJECTID":319,"TOWN_ID":6601900,"TOWN_NAME":"新社區","T_UID":319,"COUNTY_NAME":"台中市","ALL":"台中市新社區"},"geometry":{"type":"Point","coordinates":[120.8204358,24.1867194]}},{"type":"Feature","properties":{"OBJECTID":32,"TOWN_ID":6801000,"TOWN_NAME":"平鎮區","T_UID":32,"COUNTY_NAME":"桃園市","ALL":"桃園市平鎮區"},"geometry":{"type":"Point","coordinates":[121.22145,24.921905]}},{"type":"Feature","properties":{"OBJECTID":320,"TOWN_ID":6602000,"TOWN_NAME":"石岡區","T_UID":320,"COUNTY_NAME":"台中市","ALL":"台中市石岡區"},"geometry":{"type":"Point","coordinates":[120.7821553,24.2742426]}},{"type":"Feature","properties":{"OBJECTID":321,"TOWN_ID":6602100,"TOWN_NAME":"外埔區","T_UID":321,"COUNTY_NAME":"台中市","ALL":"台中市外埔區"},"geometry":{"type":"Point","coordinates":[120.6583224,24.3317733]}},{"type":"Feature","properties":{"OBJECTID":322,"TOWN_ID":6602200,"TOWN_NAME":"大安區","T_UID":322,"COUNTY_NAME":"台中市","ALL":"台中市大安區"},"geometry":{"type":"Point","coordinates":[120.5962217,24.3702355]}},{"type":"Feature","properties":{"OBJECTID":323,"TOWN_ID":6602300,"TOWN_NAME":"烏日區","T_UID":323,"COUNTY_NAME":"台中市","ALL":"台中市烏日區"},"geometry":{"type":"Point","coordinates":[120.6430936,24.107787]}},{"type":"Feature","properties":{"OBJECTID":324,"TOWN_ID":6602400,"TOWN_NAME":"大肚區","T_UID":324,"COUNTY_NAME":"台中市","ALL":"台中市大肚區"},"geometry":{"type":"Point","coordinates":[120.5674474,24.1358732]}},{"type":"Feature","properties":{"OBJECTID":325,"TOWN_ID":6602500,"TOWN_NAME":"龍井區","T_UID":325,"COUNTY_NAME":"台中市","ALL":"台中市龍井區"},"geometry":{"type":"Point","coordinates":[120.5213949,24.2102428]}},{"type":"Feature","properties":{"OBJECTID":326,"TOWN_ID":6602600,"TOWN_NAME":"霧峰區","T_UID":326,"COUNTY_NAME":"台中市","ALL":"台中市霧峰區"},"geometry":{"type":"Point","coordinates":[120.739995,24.0442951]}},{"type":"Feature","properties":{"OBJECTID":327,"TOWN_ID":6602700,"TOWN_NAME":"太平區","T_UID":327,"COUNTY_NAME":"台中市","ALL":"台中市太平區"},"geometry":{"type":"Point","coordinates":[120.7220701,24.1240719]}},{"type":"Feature","properties":{"OBJECTID":328,"TOWN_ID":6602800,"TOWN_NAME":"大里區","T_UID":328,"COUNTY_NAME":"台中市","ALL":"台中市大里區"},"geometry":{"type":"Point","coordinates":[120.6862114,24.1046899]}},{"type":"Feature","properties":{"OBJECTID":329,"TOWN_ID":6602900,"TOWN_NAME":"和平區","T_UID":329,"COUNTY_NAME":"台中市","ALL":"台中市和平區"},"geometry":{"type":"Point","coordinates":[121.085609,24.264746]}},{"type":"Feature","properties":{"OBJECTID":33,"TOWN_ID":6801100,"TOWN_NAME":"新屋區","T_UID":33,"COUNTY_NAME":"桃園市","ALL":"桃園市新屋區"},"geometry":{"type":"Point","coordinates":[121.072907,24.9826597]}},{"type":"Feature","properties":{"OBJECTID":330,"TOWN_ID":6700100,"TOWN_NAME":"新營區","T_UID":330,"COUNTY_NAME":"台南市","ALL":"台南市新營區"},"geometry":{"type":"Point","coordinates":[120.3139541,23.3119567]}},{"type":"Feature","properties":{"OBJECTID":331,"TOWN_ID":6700200,"TOWN_NAME":"鹽水區","T_UID":331,"COUNTY_NAME":"台南市","ALL":"台南市鹽水區"},"geometry":{"type":"Point","coordinates":[120.2447336,23.2622306]}},{"type":"Feature","properties":{"OBJECTID":332,"TOWN_ID":6700300,"TOWN_NAME":"白河區","T_UID":332,"COUNTY_NAME":"台南市","ALL":"台南市白河區"},"geometry":{"type":"Point","coordinates":[120.4638059,23.3336369]}},{"type":"Feature","properties":{"OBJECTID":333,"TOWN_ID":6700400,"TOWN_NAME":"柳營區","T_UID":333,"COUNTY_NAME":"台南市","ALL":"台南市柳營區"},"geometry":{"type":"Point","coordinates":[120.3600808,23.2806957]}},{"type":"Feature","properties":{"OBJECTID":334,"TOWN_ID":6700500,"TOWN_NAME":"後壁區","T_UID":334,"COUNTY_NAME":"台南市","ALL":"台南市後壁區"},"geometry":{"type":"Point","coordinates":[120.3600808,23.3665101]}},{"type":"Feature","properties":{"OBJECTID":335,"TOWN_ID":6700600,"TOWN_NAME":"東山區","T_UID":335,"COUNTY_NAME":"台南市","ALL":"台南市東山區"},"geometry":{"type":"Point","coordinates":[120.452285,23.2825014]}},{"type":"Feature","properties":{"OBJECTID":336,"TOWN_ID":6700700,"TOWN_NAME":"麻豆區","T_UID":336,"COUNTY_NAME":"台南市","ALL":"台南市麻豆區"},"geometry":{"type":"Point","coordinates":[120.2447336,23.1763401]}},{"type":"Feature","properties":{"OBJECTID":337,"TOWN_ID":6700800,"TOWN_NAME":"下營區","T_UID":337,"COUNTY_NAME":"台南市","ALL":"台南市下營區"},"geometry":{"type":"Point","coordinates":[120.2735799,23.2292915]}},{"type":"Feature","properties":{"OBJECTID":338,"TOWN_ID":6700900,"TOWN_NAME":"六甲區","T_UID":338,"COUNTY_NAME":"台南市","ALL":"台南市六甲區"},"geometry":{"type":"Point","coordinates":[120.3370195,23.2426813]}},{"type":"Feature","properties":{"OBJECTID":339,"TOWN_ID":6701000,"TOWN_NAME":"官田區","T_UID":339,"COUNTY_NAME":"台南市","ALL":"台南市官田區"},"geometry":{"type":"Point","coordinates":[120.3600808,23.1948768]}},{"type":"Feature","properties":{"OBJECTID":34,"TOWN_ID":6801200,"TOWN_NAME":"觀音區","T_UID":34,"COUNTY_NAME":"桃園市","ALL":"桃園市觀音區"},"geometry":{"type":"Point","coordinates":[121.1187544,25.0359365]}},{"type":"Feature","properties":{"OBJECTID":340,"TOWN_ID":6701100,"TOWN_NAME":"大內區","T_UID":340,"COUNTY_NAME":"台南市","ALL":"台南市大內區"},"geometry":{"type":"Point","coordinates":[120.4061911,23.1421962]}},{"type":"Feature","properties":{"OBJECTID":341,"TOWN_ID":6701200,"TOWN_NAME":"佳里區","T_UID":341,"COUNTY_NAME":"台南市","ALL":"台南市佳里區"},"geometry":{"type":"Point","coordinates":[120.1754766,23.1694465]}},{"type":"Feature","properties":{"OBJECTID":342,"TOWN_ID":6701300,"TOWN_NAME":"學甲區","T_UID":342,"COUNTY_NAME":"台南市","ALL":"台南市學甲區"},"geometry":{"type":"Point","coordinates":[120.1754766,23.2553798]}},{"type":"Feature","properties":{"OBJECTID":343,"TOWN_ID":6701400,"TOWN_NAME":"西港區","T_UID":343,"COUNTY_NAME":"台南市","ALL":"台南市西港區"},"geometry":{"type":"Point","coordinates":[120.2043381,23.1257853]}},{"type":"Feature","properties":{"OBJECTID":344,"TOWN_ID":6701500,"TOWN_NAME":"七股區","T_UID":344,"COUNTY_NAME":"台南市","ALL":"台南市七股區"},"geometry":{"type":"Point","coordinates":[120.1061836,23.1195166]}},{"type":"Feature","properties":{"OBJECTID":345,"TOWN_ID":6701600,"TOWN_NAME":"將軍區","T_UID":345,"COUNTY_NAME":"台南市","ALL":"台南市將軍區"},"geometry":{"type":"Point","coordinates":[120.142211,23.216876]}},{"type":"Feature","properties":{"OBJECTID":346,"TOWN_ID":6701700,"TOWN_NAME":"北門區","T_UID":346,"COUNTY_NAME":"台南市","ALL":"台南市北門區"},"geometry":{"type":"Point","coordinates":[120.1292853,23.2866026]}},{"type":"Feature","properties":{"OBJECTID":347,"TOWN_ID":6701800,"TOWN_NAME":"新化區","T_UID":347,"COUNTY_NAME":"台南市","ALL":"台南市新化區"},"geometry":{"type":"Point","coordinates":[120.3370195,23.0280873]}},{"type":"Feature","properties":{"OBJECTID":348,"TOWN_ID":6701900,"TOWN_NAME":"善化區","T_UID":348,"COUNTY_NAME":"台南市","ALL":"台南市善化區"},"geometry":{"type":"Point","coordinates":[120.3139541,23.1402613]}},{"type":"Feature","properties":{"OBJECTID":349,"TOWN_ID":6702000,"TOWN_NAME":"新市區","T_UID":349,"COUNTY_NAME":"台南市","ALL":"台南市新市區"},"geometry":{"type":"Point","coordinates":[120.2908846,23.0807324]}},{"type":"Feature","properties":{"OBJECTID":35,"TOWN_ID":6801300,"TOWN_NAME":"復興區","T_UID":35,"COUNTY_NAME":"桃園市","ALL":"桃園市復興區"},"geometry":{"type":"Point","coordinates":[121.3820336,24.709089]}},{"type":"Feature","properties":{"OBJECTID":350,"TOWN_ID":6702100,"TOWN_NAME":"安定區","T_UID":350,"COUNTY_NAME":"台南市","ALL":"台南市安定區"},"geometry":{"type":"Point","coordinates":[120.2216519,23.095298]}},{"type":"Feature","properties":{"OBJECTID":351,"TOWN_ID":6702200,"TOWN_NAME":"山上區","T_UID":351,"COUNTY_NAME":"台南市","ALL":"台南市山上區"},"geometry":{"type":"Point","coordinates":[120.3773741,23.0893067]}},{"type":"Feature","properties":{"OBJECTID":352,"TOWN_ID":6702300,"TOWN_NAME":"玉井區","T_UID":352,"COUNTY_NAME":"台南市","ALL":"台南市玉井區"},"geometry":{"type":"Point","coordinates":[120.4753258,23.1060822]}},{"type":"Feature","properties":{"OBJECTID":353,"TOWN_ID":6702400,"TOWN_NAME":"楠西區","T_UID":353,"COUNTY_NAME":"台南市","ALL":"台南市楠西區"},"geometry":{"type":"Point","coordinates":[120.5213949,23.1820152]}},{"type":"Feature","properties":{"OBJECTID":354,"TOWN_ID":6702500,"TOWN_NAME":"南化區","T_UID":354,"COUNTY_NAME":"台南市","ALL":"台南市南化區"},"geometry":{"type":"Point","coordinates":[120.5674474,23.1079133]}},{"type":"Feature","properties":{"OBJECTID":355,"TOWN_ID":6702600,"TOWN_NAME":"左鎮區","T_UID":355,"COUNTY_NAME":"台南市","ALL":"台南市左鎮區"},"geometry":{"type":"Point","coordinates":[120.4292401,23.0300785]}},{"type":"Feature","properties":{"OBJECTID":356,"TOWN_ID":6702700,"TOWN_NAME":"仁德區","T_UID":356,"COUNTY_NAME":"台南市","ALL":"台南市仁德區"},"geometry":{"type":"Point","coordinates":[120.2447336,22.9401228]}},{"type":"Feature","properties":{"OBJECTID":357,"TOWN_ID":6702800,"TOWN_NAME":"歸仁區","T_UID":357,"COUNTY_NAME":"台南市","ALL":"台南市歸仁區"},"geometry":{"type":"Point","coordinates":[120.2908846,22.9519268]}},{"type":"Feature","properties":{"OBJECTID":358,"TOWN_ID":6702900,"TOWN_NAME":"關廟區","T_UID":358,"COUNTY_NAME":"台南市","ALL":"台南市關廟區"},"geometry":{"type":"Point","coordinates":[120.3370195,22.9637053]}},{"type":"Feature","properties":{"OBJECTID":359,"TOWN_ID":6703000,"TOWN_NAME":"龍崎區","T_UID":359,"COUNTY_NAME":"台南市","ALL":"台南市龍崎區"},"geometry":{"type":"Point","coordinates":[120.383138,22.9540045]}},{"type":"Feature","properties":{"OBJECTID":360,"TOWN_ID":6703100,"TOWN_NAME":"永康區","T_UID":360,"COUNTY_NAME":"台南市","ALL":"台南市永康區"},"geometry":{"type":"Point","coordinates":[120.2678111,23.0211779]}},{"type":"Feature","properties":{"OBJECTID":361,"TOWN_ID":6703200,"TOWN_NAME":"東區","T_UID":361,"COUNTY_NAME":"台南市","ALL":"台南市東區"},"geometry":{"type":"Point","coordinates":[120.2274227,22.98133]}},{"type":"Feature","properties":{"OBJECTID":362,"TOWN_ID":6703300,"TOWN_NAME":"南區","T_UID":362,"COUNTY_NAME":"台南市","ALL":"台南市南區"},"geometry":{"type":"Point","coordinates":[120.1927943,22.9563522]}},{"type":"Feature","properties":{"OBJECTID":363,"TOWN_ID":6703400,"TOWN_NAME":"北區","T_UID":363,"COUNTY_NAME":"台南市","ALL":"台南市北區"},"geometry":{"type":"Point","coordinates":[120.2129953,23.008515]}},{"type":"Feature","properties":{"OBJECTID":364,"TOWN_ID":6703500,"TOWN_NAME":"安南區","T_UID":364,"COUNTY_NAME":"台南市","ALL":"台南市安南區"},"geometry":{"type":"Point","coordinates":[120.1408346,23.0585336]}},{"type":"Feature","properties":{"OBJECTID":365,"TOWN_ID":6703600,"TOWN_NAME":"安平區","T_UID":365,"COUNTY_NAME":"台南市","ALL":"台南市安平區"},"geometry":{"type":"Point","coordinates":[120.1697036,22.9934043]}},{"type":"Feature","properties":{"OBJECTID":366,"TOWN_ID":6703700,"TOWN_NAME":"中西區","T_UID":366,"COUNTY_NAME":"台南市","ALL":"台南市中西區"},"geometry":{"type":"Point","coordinates":[120.2014522,22.9948212]}},{"type":"Feature","properties":{"OBJECTID":367,"TOWN_ID":6601400,"TOWN_NAME":"梧棲區","T_UID":367,"COUNTY_NAME":"台中市","ALL":"台中市梧棲區"},"geometry":{"type":"Point","coordinates":[120.5444232,24.2479737]}}]}